{
"type": "FeatureCollection",
"features": [
{ "type": "Feature", "properties": { "HomeTeam": 154, "key": "Man City", "Team": "Manchester City ", "FDCOUK": "Man City", "City": "Manchester ", "Stadium": "Etihad Stadium", "Capacity": 47405, "Latitude": 53.482989, "Longitude": -2.200292, "Country": "England" }, "geometry": { "type": "Point", "coordinates": [ -2.200292, 53.482989 ] } },
{ "type": "Feature", "properties": { "HomeTeam": 141, "key": "Man United", "Team": "Manchester United ", "FDCOUK": "Man United", "City": "Stretford ", "Stadium": "Old Trafford ", "Capacity": 75811, "Latitude": 53.463056, "Longitude": -2.291389, "Country": "England" }, "geometry": { "type": "Point", "coordinates": [ -2.291389, 53.463056 ] } },
{ "type": "Feature", "properties": { "HomeTeam": 137, "key": "Chelsea", "Team": "Chelsea ", "FDCOUK": "Chelsea", "City": "London ", "Stadium": "Stamford Bridge ", "Capacity": 42449, "Latitude": 51.481667, "Longitude": -0.191111, "Country": "England" }, "geometry": { "type": "Point", "coordinates": [ -0.191111, 51.481667 ] } },
{ "type": "Feature", "properties": { "HomeTeam": 136, "key": "Arsenal", "Team": "Arsenal ", "FDCOUK": "Arsenal", "City": "London ", "Stadium": "Emirates Stadium ", "Capacity": 60361, "Latitude": 51.555, "Longitude": -0.108611, "Country": "England" }, "geometry": { "type": "Point", "coordinates": [ -0.108611, 51.555 ] } },
{ "type": "Feature", "properties": { "HomeTeam": 130, "key": "Liverpool", "Team": "Liverpool ", "FDCOUK": "Liverpool", "City": "Liverpool ", "Stadium": "Anfield ", "Capacity": 45276, "Latitude": 53.430819, "Longitude": -2.960828, "Country": "England" }, "geometry": { "type": "Point", "coordinates": [ -2.960828, 53.430819 ] } },
{ "type": "Feature", "properties": { "HomeTeam": 128, "key": "Tottenham", "Team": "Tottenham Hotspur ", "FDCOUK": "Tottenham", "City": "London ", "Stadium": "White Hart Lane ", "Capacity": 36230, "Latitude": 51.603333, "Longitude": -0.065833, "Country": "England" }, "geometry": { "type": "Point", "coordinates": [ -0.065833, 51.603333 ] } },
{ "type": "Feature", "properties": { "HomeTeam": 108, "key": "Everton", "Team": "Everton ", "FDCOUK": "Everton", "City": "Liverpool ", "Stadium": "Goodison Park ", "Capacity": 40157, "Latitude": 53.438889, "Longitude": -2.966389, "Country": "England" }, "geometry": { "type": "Point", "coordinates": [ -2.966389, 53.438889 ] } },
{ "type": "Feature", "properties": { "HomeTeam": 73, "key": "West Ham", "Team": "West Ham United ", "FDCOUK": "West Ham", "City": "London ", "Stadium": "Boleyn Ground ", "Capacity": 35303, "Latitude": 51.531944, "Longitude": 0.039444, "Country": "England" }, "geometry": { "type": "Point", "coordinates": [ 0.039444, 51.531944 ] } },
{ "type": "Feature", "properties": { "HomeTeam": 71, "key": "Stoke", "Team": "Stoke City ", "FDCOUK": "Stoke", "City": "Stoke-on-Trent ", "Stadium": "Britannia Stadium ", "Capacity": 27740, "Latitude": 52.988333, "Longitude": -2.175556, "Country": "England" }, "geometry": { "type": "Point", "coordinates": [ -2.175556, 52.988333 ] } },
{ "type": "Feature", "properties": { "HomeTeam": 69, "key": "Newcastle", "Team": "Newcastle United ", "FDCOUK": "Newcastle", "City": "Newcastle upon Tyne ", "Stadium": "Sports Direct Arena", "Capacity": 52409, "Latitude": 54.975556, "Longitude": -1.621667, "Country": "England" }, "geometry": { "type": "Point", "coordinates": [ -1.621667, 54.975556 ] } },
{ "type": "Feature", "properties": { "HomeTeam": 55, "key": "Southampton", "Team": "Southampton ", "FDCOUK": "Southampton", "City": "Southampton ", "Stadium": "St Mary's Stadium ", "Capacity": 32689, "Latitude": 50.905833, "Longitude": -1.391111, "Country": "England" }, "geometry": { "type": "Point", "coordinates": [ -1.391111, 50.905833 ] } },
{ "type": "Feature", "properties": { "HomeTeam": 53, "key": "Leicester", "Team": "Leicester City ", "FDCOUK": "Leicester", "City": "Leicester ", "Stadium": "King Power Stadium ", "Capacity": 32500, "Latitude": 52.620278, "Longitude": -1.142222, "Country": "England" }, "geometry": { "type": "Point", "coordinates": [ -1.142222, 52.620278 ] } },
{ "type": "Feature", "properties": { "HomeTeam": 52, "key": "West Brom", "Team": "West Bromwich Albion ", "FDCOUK": "West Brom", "City": "West Bromwich ", "Stadium": "The Hawthorns ", "Capacity": 27877, "Latitude": 52.509167, "Longitude": -1.963889, "Country": "England" }, "geometry": { "type": "Point", "coordinates": [ -1.963889, 52.509167 ] } },
{ "type": "Feature", "properties": { "HomeTeam": 51, "key": "Swansea", "Team": "Swansea City ", "FDCOUK": "Swansea", "City": "Swansea ", "Stadium": "Liberty Stadium ", "Capacity": 20520, "Latitude": 51.6422, "Longitude": -3.9351, "Country": "England" }, "geometry": { "type": "Point", "coordinates": [ -3.9351, 51.6422 ] } },
{ "type": "Feature", "properties": { "HomeTeam": 47, "key": "Fulham", "Team": "Fulham ", "FDCOUK": "Fulham", "City": "London ", "Stadium": "Craven Cottage ", "Capacity": 25700, "Latitude": 51.475, "Longitude": -0.221667, "Country": "England" }, "geometry": { "type": "Point", "coordinates": [ -0.221667, 51.475 ] } },
{ "type": "Feature", "properties": { "HomeTeam": 46, "key": "Sunderland", "Team": "Sunderland ", "FDCOUK": "Sunderland", "City": "Sunderland ", "Stadium": "Stadium of Light ", "Capacity": 48707, "Latitude": 54.9144, "Longitude": -1.3882, "Country": "England" }, "geometry": { "type": "Point", "coordinates": [ -1.3882, 54.9144 ] } },
{ "type": "Feature", "properties": { "HomeTeam": 44, "key": "Crystal Palace", "Team": "Crystal Palace ", "FDCOUK": "Crystal Palace", "City": "London ", "Stadium": "Selhurst Park ", "Capacity": 26309, "Latitude": 51.398333, "Longitude": -0.085556, "Country": "England" }, "geometry": { "type": "Point", "coordinates": [ -0.085556, 51.398333 ] } },
{ "type": "Feature", "properties": { "HomeTeam": 43, "key": "Aston Villa", "Team": "Aston Villa ", "FDCOUK": "Aston Villa", "City": "Birmingham ", "Stadium": "Villa Park ", "Capacity": 42785, "Latitude": 52.509167, "Longitude": -1.884722, "Country": "England" }, "geometry": { "type": "Point", "coordinates": [ -1.884722, 52.509167 ] } },
{ "type": "Feature", "properties": { "HomeTeam": 42, "key": "Burnley", "Team": "Burnley ", "FDCOUK": "Burnley", "City": "Burnley ", "Stadium": "Turf Moor ", "Capacity": 22546, "Latitude": 53.789167, "Longitude": -2.230278, "Country": "England" }, "geometry": { "type": "Point", "coordinates": [ -2.230278, 53.789167 ] } },
{ "type": "Feature", "properties": { "HomeTeam": 33, "key": "Watford", "Team": "Watford ", "FDCOUK": "Watford", "City": "Watford ", "Stadium": "Vicarage Road ", "Capacity": 23500, "Latitude": 51.649836, "Longitude": -0.401486, "Country": "England" }, "geometry": { "type": "Point", "coordinates": [ -0.401486, 51.649836 ] } },
{ "type": "Feature", "properties": { "HomeTeam": 33, "key": "Bournemouth", "Team": "Bournemouth", "FDCOUK": "Bournemouth", "City": "Bournemouth", "Stadium": "Vitality Stadium", "Capacity": 10375, "Latitude": 50.735278, "Longitude": -1.838333, "Country": "England" }, "geometry": { "type": "Point", "coordinates": [ -1.838333, 50.735278 ] } },
{ "type": "Feature", "properties": { "HomeTeam": 31, "key": "Wolves", "Team": "Wolverhampton Wanderers ", "FDCOUK": "Wolves", "City": "Wolverhampton ", "Stadium": "Molineux Stadium ", "Capacity": 27828, "Latitude": 52.590278, "Longitude": -2.130278, "Country": "England" }, "geometry": { "type": "Point", "coordinates": [ -2.130278, 52.590278 ] } },
{ "type": "Feature", "properties": { "HomeTeam": 31, "key": "Norwich", "Team": "Norwich City ", "FDCOUK": "Norwich", "City": "Norwich ", "Stadium": "Carrow Road ", "Capacity": 27010, "Latitude": 52.622128, "Longitude": 1.308653, "Country": "England" }, "geometry": { "type": "Point", "coordinates": [ 1.308653, 52.622128 ] } },
{ "type": "Feature", "properties": { "HomeTeam": 26, "key": "Hull", "Team": "Hull City ", "FDCOUK": "Hull", "City": "Kingston upon Hull ", "Stadium": "KC Stadium ", "Capacity": 25404, "Latitude": 53.746111, "Longitude": -0.367778, "Country": "England" }, "geometry": { "type": "Point", "coordinates": [ -0.367778, 53.746111 ] } },
{ "type": "Feature", "properties": { "HomeTeam": 23, "key": "Blackburn", "Team": "Blackburn Rovers ", "FDCOUK": "Blackburn", "City": "Blackburn ", "Stadium": "Ewood Park ", "Capacity": 31154, "Latitude": 53.728611, "Longitude": -2.489167, "Country": "England" }, "geometry": { "type": "Point", "coordinates": [ -2.489167, 53.728611 ] } },
{ "type": "Feature", "properties": { "HomeTeam": 20, "key": "Wigan", "Team": "Wigan Athletic ", "FDCOUK": "Wigan", "City": "Wigan ", "Stadium": "DW Stadium ", "Capacity": 25133, "Latitude": 53.547778, "Longitude": -2.653889, "Country": "England" }, "geometry": { "type": "Point", "coordinates": [ -2.653889, 53.547778 ] } },
{ "type": "Feature", "properties": { "HomeTeam": 20, "key": "Bolton", "Team": "Bolton Wanderers ", "FDCOUK": "Bolton", "City": "Bolton ", "Stadium": "Reebok Stadium ", "Capacity": 28100, "Latitude": 53.580556, "Longitude": -2.535556, "Country": "England" }, "geometry": { "type": "Point", "coordinates": [ -2.535556, 53.580556 ] } },
{ "type": "Feature", "properties": { "HomeTeam": 17, "key": "Brighton", "Team": "Brighton & Hove Albion ", "FDCOUK": "Brighton", "City": "Brighton ", "Stadium": "American Express Community Stadium ", "Capacity": 22374, "Latitude": 50.861822, "Longitude": -0.083278, "Country": "England" }, "geometry": { "type": "Point", "coordinates": [ -0.083278, 50.861822 ] } },
{ "type": "Feature", "properties": { "HomeTeam": 15, "key": "QPR", "Team": "Queens Park Rangers ", "FDCOUK": "QPR", "City": "London ", "Stadium": "Loftus Road ", "Capacity": 18439, "Latitude": 51.509167, "Longitude": -0.232222, "Country": "England" }, "geometry": { "type": "Point", "coordinates": [ -0.232222, 51.509167 ] } },
{ "type": "Feature", "properties": { "HomeTeam": 14, "key": "Birmingham", "Team": "Birmingham City ", "FDCOUK": "Birmingham", "City": "Birmingham ", "Stadium": "St Andrew's Stadium ", "Capacity": 30079, "Latitude": 52.475703, "Longitude": -1.868189, "Country": "England" }, "geometry": { "type": "Point", "coordinates": [ -1.868189, 52.475703 ] } },
{ "type": "Feature", "properties": { "HomeTeam": 11, "key": "Cardiff", "Team": "Cardiff City ", "FDCOUK": "Cardiff", "City": "Cardiff ", "Stadium": "Cardiff City Stadium ", "Capacity": 26828, "Latitude": 51.472778, "Longitude": -3.203056, "Country": "England" }, "geometry": { "type": "Point", "coordinates": [ -3.203056, 51.472778 ] } },
{ "type": "Feature", "properties": { "HomeTeam": 8, "key": "Huddersfield", "Team": "Huddersfield", "FDCOUK": "Huddersfield", "City": "Huddersfield", "Stadium": "Kirklees Stadium", "Capacity": 24121, "Latitude": 53.654167, "Longitude": -1.768333, "Country": "England" }, "geometry": { "type": "Point", "coordinates": [ -1.768333, 53.654167 ] } },
{ "type": "Feature", "properties": { "HomeTeam": 7, "key": "Sheffield United", "Team": "Sheffield United", "FDCOUK": "Sheffield United", "City": "Sheffield", "Stadium": "Bramall Lane", "Capacity": 33000, "Latitude": 53.370278, "Longitude": -1.470833, "Country": "England" }, "geometry": { "type": "Point", "coordinates": [ -1.470833, 53.370278 ] } },
{ "type": "Feature", "properties": { "HomeTeam": 5, "key": "Blackpool", "Team": "Blackpool ", "FDCOUK": "Blackpool", "City": "Blackpool ", "Stadium": "Bloomfield Road ", "Capacity": 16220, "Latitude": 53.804722, "Longitude": -3.048056, "Country": "England" }, "geometry": { "type": "Point", "coordinates": [ -3.048056, 53.804722 ] } },
{ "type": "Feature", "properties": { "HomeTeam": 5, "key": "Portsmouth", "Team": "Portsmouth ", "FDCOUK": "Portsmouth", "City": "Portsmouth ", "Stadium": "Fratton Park ", "Capacity": 20224, "Latitude": 50.796389, "Longitude": -1.063889, "Country": "England" }, "geometry": { "type": "Point", "coordinates": [ -1.063889, 50.796389 ] } },
{ "type": "Feature", "properties": { "HomeTeam": 4, "key": "Reading", "Team": "Reading ", "FDCOUK": "Reading", "City": "Reading ", "Stadium": "Madejski Stadium ", "Capacity": 24224, "Latitude": 51.422222, "Longitude": -0.982778, "Country": "England" }, "geometry": { "type": "Point", "coordinates": [ -0.982778, 51.422222 ] } },
{ "type": "Feature", "properties": { "HomeTeam": 4, "key": "Middlesbrough", "Team": "Middlesbrough ", "FDCOUK": "Middlesbrough", "City": "Middlesbrough ", "Stadium": "Riverside Stadium ", "Capacity": 34988, "Latitude": 54.578333, "Longitude": -1.216944, "Country": "England" }, "geometry": { "type": "Point", "coordinates": [ -1.216944, 54.578333 ] } }
]
}
